{"nhits": 3173647, "parameters": {"dataset": ["worldcitiespop"], "timezone": "UTC", "rows": 3, "sort": ["population"], "format": "json", "facet": ["country"]}, "records": [{"datasetid": "worldcitiespop", "recordid": "65d7dab4eeca267b6279393103e3ae83a8bf7fce", "fields": {"city": "tokyo", "country": "jp", "region": "40", "geopoint": [35.685, 139.751389], "longitude": 139.751389, "latitude": 35.685, "accentcity": "Tokyo", "population": 31480498}, "geometry": {"type": "Point", "coordinates": [139.751389, 35.685]}, "record_timestamp": "2018-01-08T11:47:45+00:00"}, {"datasetid": "worldcitiespop", "recordid": "ee1967fc2b76e81b5ad1dc43e260de3e7624743f", "fields": {"city": "shanghai", "country": "cn", "region": "23", "geopoint": [31.045556, 121.399722], "longitude": 121.399722, "latitude": 31.045556, "accentcity": "Shanghai", "population": 14608512}, "geometry": {"type": "Point", "coordinates": [121.399722, 31.045556]}, "record_timestamp": "2018-01-08T11:47:45+00:00"}, {"datasetid": "worldcitiespop", "recordid": "5c5f4c9b32dc6151c4158b26140b53717f310de9", "fields": {"city": "bombay", "country": "in", "region": "16", "geopoint": [18.975, 72.825833], "longitude": 72.825833, "latitude": 18.975, "accentcity": "Bombay", "population": 12692717}, "geometry": {"type": "Point", "coordinates": [72.825833, 18.975]}, "record_timestamp": "2018-01-08T11:47:45+00:00"}], "facet_groups": [{"name": "country", "facets": [{"name": "cn", "path": "cn", "count": 238985, "state": "displayed"}, {"name": "ru", "path": "ru", "count": 215938, "state": "displayed"}, {"name": "id", "path": "id", "count": 176546, "state": "displayed"}, {"name": "us", "path": "us", "count": 141982, "state": "displayed"}, {"name": "ir", "path": "ir", "count": 123865, "state": "displayed"}, {"name": "pk", "path": "pk", "count": 94247, "state": "displayed"}, {"name": "af", "path": "af", "count": 88468, "state": "displayed"}, {"name": "tr", "path": "tr", "count": 72451, "state": "displayed"}, {"name": "de", "path": "de", "count": 70477, "state": "displayed"}, {"name": "fr", "path": "fr", "count": 66362, "state": "displayed"}, {"name": "mx", "path": "mx", "count": 62116, "state": "displayed"}, {"name": "th", "path": "th", "count": 56846, "state": "displayed"}, {"name": "pl", "path": "pl", "count": 49666, "state": "displayed"}, {"name": "ph", "path": "ph", "count": 48233, "state": "displayed"}, {"name": "kr", "path": "kr", "count": 44601, "state": "displayed"}, {"name": "ng", "path": "ng", "count": 43763, "state": "displayed"}, {"name": "br", "path": "br", "count": 43204, "state": "displayed"}, {"name": "ua", "path": "ua", "count": 42775, "state": "displayed"}, {"name": "in", "path": "in", "count": 39813, "state": "displayed"}, {"name": "mm", "path": "mm", "count": 33856, "state": "displayed"}, {"name": "vn", "path": "vn", "count": 32943, "state": "displayed"}, {"name": "es", "path": "es", "count": 31496, "state": "displayed"}, {"name": "kp", "path": "kp", "count": 29358, "state": "displayed"}, {"name": "ro", "path": "ro", "count": 28838, "state": "displayed"}, {"name": "ma", "path": "ma", "count": 28356, "state": "displayed"}, {"name": "se", "path": "se", "count": 27813, "state": "displayed"}, {"name": "co", "path": "co", "count": 27326, "state": "displayed"}, {"name": "pe", "path": "pe", "count": 26549, "state": "displayed"}, {"name": "bd", "path": "bd", "count": 26414, "state": "displayed"}, {"name": "my", "path": "my", "count": 26313, "state": "displayed"}, {"name": "gr", "path": "gr", "count": 23263, "state": "displayed"}, {"name": "cd", "path": "cd", "count": 23013, "state": "displayed"}, {"name": "zr", "path": "zr", "count": 23012, "state": "displayed"}, {"name": "cz", "path": "cz", "count": 21682, "state": "displayed"}, {"name": "mz", "path": "mz", "count": 21241, "state": "displayed"}, {"name": "ve", "path": "ve", "count": 20709, "state": "displayed"}, {"name": "it", "path": "it", "count": 20606, "state": "displayed"}, {"name": "bg", "path": "bg", "count": 20106, "state": "displayed"}, {"name": "ao", "path": "ao", "count": 19560, "state": "displayed"}, {"name": "hu", "path": "hu", "count": 18623, "state": "displayed"}, {"name": "sy", "path": "sy", "count": 18486, "state": "displayed"}, {"name": "mg", "path": "mg", "count": 18423, "state": "displayed"}, {"name": "lk", "path": "lk", "count": 18214, "state": "displayed"}, {"name": "jp", "path": "jp", "count": 17848, "state": "displayed"}, {"name": "gb", "path": "gb", "count": 17708, "state": "displayed"}, {"name": "iq", "path": "iq", "count": 17343, "state": "displayed"}, {"name": "lt", "path": "lt", "count": 17341, "state": "displayed"}, {"name": "la", "path": "la", "count": 16477, "state": "displayed"}, {"name": "be", "path": "be", "count": 16218, "state": "displayed"}, {"name": "ba", "path": "ba", "count": 15999, "state": "displayed"}, {"name": "bo", "path": "bo", "count": 15900, "state": "displayed"}, {"name": "by", "path": "by", "count": 15310, "state": "displayed"}, {"name": "pt", "path": "pt", "count": 15299, "state": "displayed"}, {"name": "al", "path": "al", "count": 15123, "state": "displayed"}, {"name": "gh", "path": "gh", "count": 14893, "state": "displayed"}, {"name": "rs", "path": "rs", "count": 14844, "state": "displayed"}, {"name": "at", "path": "at", "count": 14788, "state": "displayed"}, {"name": "kz", "path": "kz", "count": 14745, "state": "displayed"}, {"name": "kh", "path": "kh", "count": 14447, "state": "displayed"}, {"name": "ci", "path": "ci", "count": 14279, "state": "displayed"}, {"name": "pg", "path": "pg", "count": 14131, "state": "displayed"}, {"name": "eg", "path": "eg", "count": 13924, "state": "displayed"}, {"name": "fi", "path": "fi", "count": 13588, "state": "displayed"}, {"name": "et", "path": "et", "count": 13140, "state": "displayed"}, {"name": "zm", "path": "zm", "count": 13027, "state": "displayed"}, {"name": "za", "path": "za", "count": 12693, "state": "displayed"}, {"name": "no", "path": "no", "count": 12470, "state": "displayed"}, {"name": "tw", "path": "tw", "count": 12454, "state": "displayed"}, {"name": "ml", "path": "ml", "count": 12294, "state": "displayed"}, {"name": "hn", "path": "hn", "count": 12249, "state": "displayed"}, {"name": "sn", "path": "sn", "count": 12132, "state": "displayed"}, {"name": "hr", "path": "hr", "count": 12105, "state": "displayed"}, {"name": "ye", "path": "ye", "count": 11747, "state": "displayed"}, {"name": "az", "path": "az", "count": 11222, "state": "displayed"}, {"name": "td", "path": "td", "count": 10992, "state": "displayed"}, {"name": "sd", "path": "sd", "count": 10944, "state": "displayed"}, {"name": "au", "path": "au", "count": 10941, "state": "displayed"}, {"name": "ht", "path": "ht", "count": 10644, "state": "displayed"}, {"name": "bf", "path": "bf", "count": 10468, "state": "displayed"}, {"name": "do", "path": "do", "count": 10359, "state": "displayed"}, {"name": "dz", "path": "dz", "count": 9984, "state": "displayed"}, {"name": "cm", "path": "cm", "count": 9862, "state": "displayed"}, {"name": "cu", "path": "cu", "count": 9485, "state": "displayed"}, {"name": "ee", "path": "ee", "count": 9377, "state": "displayed"}, {"name": "lv", "path": "lv", "count": 9233, "state": "displayed"}, {"name": "ie", "path": "ie", "count": 9180, "state": "displayed"}, {"name": "nl", "path": "nl", "count": 9013, "state": "displayed"}, {"name": "ne", "path": "ne", "count": 8745, "state": "displayed"}, {"name": "ar", "path": "ar", "count": 8738, "state": "displayed"}, {"name": "dk", "path": "dk", "count": 8652, "state": "displayed"}, {"name": "lr", "path": "lr", "count": 8481, "state": "displayed"}, {"name": "ec", "path": "ec", "count": 8305, "state": "displayed"}, {"name": "tz", "path": "tz", "count": 8004, "state": "displayed"}, {"name": "gn", "path": "gn", "count": 7781, "state": "displayed"}, {"name": "ge", "path": "ge", "count": 7533, "state": "displayed"}, {"name": "gt", "path": "gt", "count": 6996, "state": "displayed"}, {"name": "pa", "path": "pa", "count": 6880, "state": "displayed"}, {"name": "lb", "path": "lb", "count": 6780, "state": "displayed"}, {"name": "sk", "path": "sk", "count": 6775, "state": "displayed"}, {"name": "cg", "path": "cg", "count": 6399, "state": "displayed"}]}]}
